<?xml version="1.0" encoding="Windows-1252"?>
<ArrayOfDisaster xmlns:xsi="http://www.w3.org/2001/XMLSchema-instance" xmlns:xsd="http://www.w3.org/2001/XMLSchema">
  <Disaster>
    <Type>Air Raids</Type>
    <LocationLatitude>-12.45</LocationLatitude>
    <LocationLongitude>130.83333</LocationLongitude>
    <LocationName>Darwin, Northern Territory</LocationName>
    <StartYear>1942</StartYear>
    <StartMonth>--02</StartMonth>
    <StartDay>---19</StartDay>
    <Deaths>243</Deaths>
    <Notes>First bombings of Darwin. The first Japanese air raids against Australia. The toll may have been higher because itinerants and Aboriginies may be under-represented in the official count.</Notes>
  </Disaster>
  <Disaster>
    <Type>Bushfires</Type>
    <LocationLatitude>-37</LocationLatitude>
    <LocationLongitude>144</LocationLongitude>
    <LocationName>Victoria</LocationName>
    <StartYear>2009</StartYear>
    <StartMonth>--02</StartMonth>
    <Deaths>173</Deaths>
    <Notes>Black Saturday bushfires.</Notes>
  </Disaster>
  <Disaster>
    <Type>Cyclone</Type>
    <LocationLatitude>-19.6167</LocationLatitude>
    <LocationLongitude>121</LocationLongitude>
    <LocationName>Eighty Mile Beach, Western Australia</LocationName>
    <StartYear>1884</StartYear>
    <Deaths>140</Deaths>
    <Notes>Pearling fleet sunk.</Notes>
  </Disaster>
  <Disaster>
    <Type>Cyclone</Type>
    <LocationLatitude>-17.9619</LocationLatitude>
    <LocationLongitude>122.2361</LocationLongitude>
    <LocationName>Broome, Western Australia</LocationName>
    <StartYear>1935</StartYear>
    <StartMonth>--03</StartMonth>
    <Deaths>141</Deaths>
    <Notes>Pearling fleet devastated.</Notes>
  </Disaster>
  <Disaster>
    <Type>Cyclone</Type>
    <LocationLatitude>-14.17</LocationLatitude>
    <LocationLongitude>144.523</LocationLongitude>
    <LocationName>Barthurst Bay, Queensland</LocationName>
    <StartYear>1899</StartYear>
    <StartMonth>--03</StartMonth>
    <StartDay>---04</StartDay>
    <Deaths>410</Deaths>
    <Notes>Cyclone Mahina; estimated toll.</Notes>
  </Disaster>
  <Disaster>
    <Type>Sinking</Type>
    <LocationLatitude>-19.583</LocationLatitude>
    <LocationLongitude>147.4</LocationLongitude>
    <LocationName>Ayr, Queensland</LocationName>
    <StartYear>1875</StartYear>
    <StartMonth>--02</StartMonth>
    <StartDay>---24</StartDay>
    <Deaths>107</Deaths>
    <Notes>SS Gothenburg. Records of passengers vary.</Notes>
  </Disaster>
  <Disaster>
    <Type>Sinking</Type>
    <LocationLatitude>-19.3044167</LocationLatitude>
    <LocationLongitude>147.62544</LocationLongitude>
    <LocationName>North-eastern Queensland</LocationName>
    <StartYear>1911</StartYear>
    <StartMonth>--03</StartMonth>
    <StartDay>---16</StartDay>
    <Deaths>122</Deaths>
    <Notes>SS Yongala.</Notes>
  </Disaster>
  <Disaster>
    <Type>Sinking</Type>
    <LocationLatitude>-19.583</LocationLatitude>
    <LocationLongitude>119.083</LocationLongitude>
    <LocationName>Western Australia</LocationName>
    <StartYear>1912</StartYear>
    <StartMonth>--03</StartMonth>
    <StartDay>---01</StartDay>
    <Deaths>149</Deaths>
    <Notes>SS Koombana.</Notes>
  </Disaster>
  <Disaster>
    <Type>Epidemic</Type>
    <LocationLatitude>-33.8599</LocationLatitude>
    <LocationLongitude>151.2094</LocationLongitude>
    <LocationName>Australia-wide</LocationName>
    <StartYear>1918</StartYear>
    <EndYear>1919</EndYear>
    <Deaths>12000</Deaths>
    <Notes>1918 Spanish Influenza epidemic - approximate death toll. Sidney was the worst affected area.</Notes>
  </Disaster>
</ArrayOfDisaster>